{
"type": "FeatureCollection",
"crs": { "type": "name", "properties": { "name": "urn:ogc:def:crs:OGC:1.3:CRS84" } },
                                                                                
"features": [
{ "type": "Feature", "properties": { "ST_FIPS": "29", "SFIPS": "29", "COUNTY_FIP": "095", "CFIPS": "095", "PL_FIPS": "38000", "ID": "748198", "NAME": "KANSAS CITY", "POPULATION": "441545", "ST": "MO", "STATE": "MISSOURI", "LON": -94.578000, "LAT": 39.099700 }, "geometry": { "type": "Point", "coordinates": [ -94.578, 39.0997 ] } },
{ "type": "Feature", "properties": { "ST_FIPS": "51", "SFIPS": "51", "COUNTY_FIP": "810", "CFIPS": "810", "PL_FIPS": "82000", "ID": "1478121", "NAME": "BACK BAY", "POPULATION": "425257", "ST": "VA", "STATE": "VIRGINIA", "LON": -76.031700, "LAT": 36.653600 }, "geometry": { "type": "Point", "coordinates": [ -76.0317, 36.6536 ] } },
{ "type": "Feature", "properties": { "ST_FIPS": "51", "SFIPS": "51", "COUNTY_FIP": "710", "CFIPS": "710", "PL_FIPS": "82000", "ID": "1488870", "NAME": "BAYSIDE", "POPULATION": "425257", "ST": "VA", "STATE": "VIRGINIA", "LON": -76.133400, "LAT": 36.888800 }, "geometry": { "type": "Point", "coordinates": [ -76.1334, 36.8888 ] } },
{ "type": "Feature", "properties": { "ST_FIPS": "51", "SFIPS": "51", "COUNTY_FIP": "810", "CFIPS": "810", "PL_FIPS": "82000", "ID": "1780042", "NAME": "CAPE HENRY", "POPULATION": "425257", "ST": "VA", "STATE": "VIRGINIA", "LON": -76.013100, "LAT": 36.929600 }, "geometry": { "type": "Point", "coordinates": [ -76.0131, 36.9296 ] } },
{ "type": "Feature", "properties": { "ST_FIPS": "51", "SFIPS": "51", "COUNTY_FIP": "810", "CFIPS": "810", "PL_FIPS": "82000", "ID": "5181082", "NAME": "DAM NECK", "POPULATION": "425257", "ST": "VA", "STATE": "VIRGINIA", "LON": -75.965500, "LAT": 36.782800 }, "geometry": { "type": "Point", "coordinates": [ -75.9655, 36.7828 ] } },
{ "type": "Feature", "properties": { "ST_FIPS": "51", "SFIPS": "51", "COUNTY_FIP": "810", "CFIPS": "810", "PL_FIPS": "82000", "ID": "5181082", "NAME": "GALLUPS CORNER", "POPULATION": "425257", "ST": "VA", "STATE": "VIRGINIA", "LON": -76.129700, "LAT": 36.799700 }, "geometry": { "type": "Point", "coordinates": [ -76.1297, 36.7997 ] } },
{ "type": "Feature", "properties": { "ST_FIPS": "47", "SFIPS": "47", "COUNTY_FIP": "157", "CFIPS": "157", "PL_FIPS": "48000", "ID": "4715748", "NAME": "DOWNTOWN MEMPHIS", "POPULATION": "650100", "ST": "TN", "STATE": "TENNESSE", "LON": -90.050000, "LAT": 35.133300 }, "geometry": { "type": "Point", "coordinates": [ -90.05, 35.1333 ] } },
{ "type": "Feature", "properties": { "ST_FIPS": "47", "SFIPS": "47", "COUNTY_FIP": "157", "CFIPS": "157", "PL_FIPS": "48000", "ID": "1284844", "NAME": "FRAYSER", "POPULATION": "650100", "ST": "TN", "STATE": "TENNESSE", "LON": -89.970000, "LAT": 35.216700 }, "geometry": { "type": "Point", "coordinates": [ -89.97, 35.2167 ] } },
{ "type": "Feature", "properties": { "ST_FIPS": "47", "SFIPS": "47", "COUNTY_FIP": "157", "CFIPS": "157", "PL_FIPS": "48000", "ID": "4715748", "NAME": "SOUTHWEST MEMPHIS", "POPULATION": "650100", "ST": "TN", "STATE": "TENNESSE", "LON": -90.066700, "LAT": 35.050000 }, "geometry": { "type": "Point", "coordinates": [ -90.0667, 35.05 ] } },
{ "type": "Feature", "properties": { "ST_FIPS": "47", "SFIPS": "47", "COUNTY_FIP": "037", "CFIPS": "037", "PL_FIPS": "52006", "ID": "1652484", "NAME": "NASHVILLE", "POPULATION": "504505", "ST": "TN", "STATE": "TENNESSE", "LON": -86.784800, "LAT": 36.171600 }, "geometry": { "type": "Point", "coordinates": [ -86.7848, 36.1716 ] } },
{ "type": "Feature", "properties": { "ST_FIPS": "48", "SFIPS": "48", "COUNTY_FIP": "439", "CFIPS": "439", "PL_FIPS": "04000", "ID": "1372320", "NAME": "ARLINGTON", "POPULATION": "332969", "ST": "TX", "STATE": "TEXAS", "LON": -97.127500, "LAT": 32.694500 }, "geometry": { "type": "Point", "coordinates": [ -97.1275, 32.6945 ] } },
{ "type": "Feature", "properties": { "ST_FIPS": "48", "SFIPS": "48", "COUNTY_FIP": "439", "CFIPS": "439", "PL_FIPS": "27000", "ID": "1380947", "NAME": "FORT WORTH", "POPULATION": "534694", "ST": "TX", "STATE": "TEXAS", "LON": -97.336200, "LAT": 32.753900 }, "geometry": { "type": "Point", "coordinates": [ -97.3362, 32.7539 ] } },
{ "type": "Feature", "properties": { "ST_FIPS": "48", "SFIPS": "48", "COUNTY_FIP": "113", "CFIPS": "113", "PL_FIPS": "19000", "ID": "1380944", "NAME": "DALLAS", "POPULATION": "1188580", "ST": "TX", "STATE": "TEXAS", "LON": -96.765200, "LAT": 32.794200 }, "geometry": { "type": "Point", "coordinates": [ -96.7652, 32.7942 ] } },
{ "type": "Feature", "properties": { "ST_FIPS": "48", "SFIPS": "48", "COUNTY_FIP": "453", "CFIPS": "453", "PL_FIPS": "05000", "ID": "1384879", "NAME": "AUSTIN", "POPULATION": "656562", "ST": "TX", "STATE": "TEXAS", "LON": -97.750500, "LAT": 30.305900 }, "geometry": { "type": "Point", "coordinates": [ -97.7505, 30.3059 ] } },
{ "type": "Feature", "properties": { "ST_FIPS": "48", "SFIPS": "48", "COUNTY_FIP": "201", "CFIPS": "201", "PL_FIPS": "35000", "ID": "1380948", "NAME": "HOUSTON", "POPULATION": "1953631", "ST": "TX", "STATE": "TEXAS", "LON": -95.386700, "LAT": 29.768700 }, "geometry": { "type": "Point", "coordinates": [ -95.3867, 29.7687 ] } },
{ "type": "Feature", "properties": { "ST_FIPS": "48", "SFIPS": "48", "COUNTY_FIP": "029", "CFIPS": "029", "PL_FIPS": "65000", "ID": "4802965", "NAME": "SAN ANTONIO", "POPULATION": "935933", "ST": "TX", "STATE": "TEXAS", "LON": -98.505400, "LAT": 29.457700 }, "geometry": { "type": "Point", "coordinates": [ -98.5054, 29.4577 ] } },
{ "type": "Feature", "properties": { "ST_FIPS": "51", "SFIPS": "51", "COUNTY_FIP": "810", "CFIPS": "810", "PL_FIPS": "82000", "ID": "1495973", "NAME": "MOUNT PLEASANT", "POPULATION": "425257", "ST": "VA", "STATE": "VIRGINIA", "LON": -76.134200, "LAT": 36.711500 }, "geometry": { "type": "Point", "coordinates": [ -76.1342, 36.7115 ] } },
{ "type": "Feature", "properties": { "ST_FIPS": "51", "SFIPS": "51", "COUNTY_FIP": "001", "CFIPS": "001", "PL_FIPS": "50000", "ID": "1499018", "NAME": "REAGAN NATIONAL AIIRPORT", "POPULATION": "606900", "ST": "VA", "STATE": "VIRGINIA", "LON": -77.037500, "LAT": 38.852200 }, "geometry": { "type": "Point", "coordinates": [ -77.0375, 38.8522 ] } },
{ "type": "Feature", "properties": { "ST_FIPS": "48", "SFIPS": "48", "COUNTY_FIP": "355", "CFIPS": "355", "PL_FIPS": "17000", "ID": "4835517", "NAME": "CC NAS", "POPULATION": "277454", "ST": "TX", "STATE": "TEXAS", "LON": -97.285000, "LAT": 27.690000 }, "geometry": { "type": "Point", "coordinates": [ -97.285, 27.69 ] } },
{ "type": "Feature", "properties": { "ST_FIPS": "48", "SFIPS": "48", "COUNTY_FIP": "355", "CFIPS": "355", "PL_FIPS": "17000", "ID": "1333380", "NAME": "CORPUS CHRISTI", "POPULATION": "277454", "ST": "TX", "STATE": "TEXAS", "LON": -97.292800, "LAT": 27.705700 }, "geometry": { "type": "Point", "coordinates": [ -97.2928, 27.7057 ] } },
{ "type": "Feature", "properties": { "ST_FIPS": "48", "SFIPS": "48", "COUNTY_FIP": "355", "CFIPS": "355", "PL_FIPS": "17000", "ID": "1335977", "NAME": "FLOUR BLUFF", "POPULATION": "277454", "ST": "TX", "STATE": "TEXAS", "LON": -97.302700, "LAT": 27.653800 }, "geometry": { "type": "Point", "coordinates": [ -97.3027, 27.6538 ] } },
{ "type": "Feature", "properties": { "ST_FIPS": "51", "SFIPS": "51", "COUNTY_FIP": "710", "CFIPS": "710", "PL_FIPS": "82000", "ID": "1495777", "NAME": "KEMPSVILLE", "POPULATION": "425257", "ST": "VA", "STATE": "VIRGINIA", "LON": -76.160000, "LAT": 36.827300 }, "geometry": { "type": "Point", "coordinates": [ -76.16, 36.8273 ] } },
{ "type": "Feature", "properties": { "ST_FIPS": "51", "SFIPS": "51", "COUNTY_FIP": "810", "CFIPS": "810", "PL_FIPS": "82000", "ID": "1499684", "NAME": "LONDON BRIDGE", "POPULATION": "425257", "ST": "VA", "STATE": "VIRGINIA", "LON": -76.050000, "LAT": 36.841700 }, "geometry": { "type": "Point", "coordinates": [ -76.05, 36.8417 ] } },
{ "type": "Feature", "properties": { "ST_FIPS": "51", "SFIPS": "51", "COUNTY_FIP": "810", "CFIPS": "810", "PL_FIPS": "82000", "ID": "1479009", "NAME": "LYNNHAVEN", "POPULATION": "425257", "ST": "VA", "STATE": "VIRGINIA", "LON": -76.059500, "LAT": 36.836000 }, "geometry": { "type": "Point", "coordinates": [ -76.0595, 36.836 ] } },
{ "type": "Feature", "properties": { "ST_FIPS": "51", "SFIPS": "51", "COUNTY_FIP": "810", "CFIPS": "810", "PL_FIPS": "82000", "ID": "1479019", "NAME": "MACONS CORNER", "POPULATION": "425257", "ST": "VA", "STATE": "VIRGINIA", "LON": -76.004400, "LAT": 36.800000 }, "geometry": { "type": "Point", "coordinates": [ -76.0044, 36.8 ] } },
{ "type": "Feature", "properties": { "ST_FIPS": "51", "SFIPS": "51", "COUNTY_FIP": "810", "CFIPS": "810", "PL_FIPS": "82000", "ID": "1493329", "NAME": "MUNDEN", "POPULATION": "425257", "ST": "VA", "STATE": "VIRGINIA", "LON": -76.027200, "LAT": 36.577700 }, "geometry": { "type": "Point", "coordinates": [ -76.0272, 36.5777 ] } },
{ "type": "Feature", "properties": { "ST_FIPS": "51", "SFIPS": "51", "COUNTY_FIP": "810", "CFIPS": "810", "PL_FIPS": "82000", "ID": "1493358", "NAME": "NORTH VIRGINIA BEACH", "POPULATION": "425257", "ST": "VA", "STATE": "VIRGINIA", "LON": -75.988000, "LAT": 36.890700 }, "geometry": { "type": "Point", "coordinates": [ -75.988, 36.8907 ] } },
{ "type": "Feature", "properties": { "ST_FIPS": "51", "SFIPS": "51", "COUNTY_FIP": "810", "CFIPS": "810", "PL_FIPS": "82000", "ID": "1499818", "NAME": "OCEANA", "POPULATION": "425257", "ST": "VA", "STATE": "VIRGINIA", "LON": -76.013300, "LAT": 36.841900 }, "geometry": { "type": "Point", "coordinates": [ -76.0133, 36.8419 ] } },
{ "type": "Feature", "properties": { "ST_FIPS": "51", "SFIPS": "51", "COUNTY_FIP": "810", "CFIPS": "810", "PL_FIPS": "82000", "ID": "5181082", "NAME": "OCEANA NAS", "POPULATION": "425257", "ST": "VA", "STATE": "VIRGINIA", "LON": -76.027800, "LAT": 36.815200 }, "geometry": { "type": "Point", "coordinates": [ -76.0278, 36.8152 ] } },
{ "type": "Feature", "properties": { "ST_FIPS": "51", "SFIPS": "51", "COUNTY_FIP": "810", "CFIPS": "810", "PL_FIPS": "82000", "ID": "1500072", "NAME": "PRINCESS ANNE", "POPULATION": "425257", "ST": "VA", "STATE": "VIRGINIA", "LON": -76.053900, "LAT": 36.751800 }, "geometry": { "type": "Point", "coordinates": [ -76.0539, 36.7518 ] } },
{ "type": "Feature", "properties": { "ST_FIPS": "51", "SFIPS": "51", "COUNTY_FIP": "810", "CFIPS": "810", "PL_FIPS": "82000", "ID": "1499916", "NAME": "PRINCESS ANNE PLAZA", "POPULATION": "425257", "ST": "VA", "STATE": "VIRGINIA", "LON": -76.091500, "LAT": 36.836800 }, "geometry": { "type": "Point", "coordinates": [ -76.0915, 36.8368 ] } },
{ "type": "Feature", "properties": { "ST_FIPS": "51", "SFIPS": "51", "COUNTY_FIP": "810", "CFIPS": "810", "PL_FIPS": "82000", "ID": "1497109", "NAME": "PUNGO", "POPULATION": "425257", "ST": "VA", "STATE": "VIRGINIA", "LON": -76.017800, "LAT": 36.724000 }, "geometry": { "type": "Point", "coordinates": [ -76.0178, 36.724 ] } },
{ "type": "Feature", "properties": { "ST_FIPS": "51", "SFIPS": "51", "COUNTY_FIP": "810", "CFIPS": "810", "PL_FIPS": "82000", "ID": "1500001", "NAME": "RUDEE HEIGHTS", "POPULATION": "425257", "ST": "VA", "STATE": "VIRGINIA", "LON": -75.976900, "LAT": 36.826900 }, "geometry": { "type": "Point", "coordinates": [ -75.9769, 36.8269 ] } },
{ "type": "Feature", "properties": { "ST_FIPS": "51", "SFIPS": "51", "COUNTY_FIP": "810", "CFIPS": "810", "PL_FIPS": "82000", "ID": "1497129", "NAME": "SANDBRIDGE BEACH", "POPULATION": "425257", "ST": "VA", "STATE": "VIRGINIA", "LON": -75.935400, "LAT": 36.722800 }, "geometry": { "type": "Point", "coordinates": [ -75.9354, 36.7228 ] } },
{ "type": "Feature", "properties": { "ST_FIPS": "51", "SFIPS": "51", "COUNTY_FIP": "810", "CFIPS": "810", "PL_FIPS": "82000", "ID": "1497153", "NAME": "SIGMA", "POPULATION": "425257", "ST": "VA", "STATE": "VIRGINIA", "LON": -75.986400, "LAT": 36.731700 }, "geometry": { "type": "Point", "coordinates": [ -75.9864, 36.7317 ] } },
{ "type": "Feature", "properties": { "ST_FIPS": "51", "SFIPS": "51", "COUNTY_FIP": "810", "CFIPS": "810", "PL_FIPS": "82000", "ID": "1500261", "NAME": "VIRGINIA BEACH", "POPULATION": "425257", "ST": "VA", "STATE": "VIRGINIA", "LON": -75.977300, "LAT": 36.849500 }, "geometry": { "type": "Point", "coordinates": [ -75.9773, 36.8495 ] } },
{ "type": "Feature", "properties": { "ST_FIPS": "36", "SFIPS": "36", "COUNTY_FIP": "119", "CFIPS": "119", "PL_FIPS": "51000", "ID": "949257", "NAME": "EAST TREMONT", "POPULATION": "8008278", "ST": "NY", "STATE": "NEW YORK", "LON": -73.870000, "LAT": 40.850000 }, "geometry": { "type": "Point", "coordinates": [ -73.87, 40.85 ] } },
{ "type": "Feature", "properties": { "ST_FIPS": "36", "SFIPS": "36", "COUNTY_FIP": "003", "CFIPS": "003", "PL_FIPS": "51000", "ID": "950375", "NAME": "FORDHAM", "POPULATION": "8008278", "ST": "NY", "STATE": "NEW YORK", "LON": -73.890000, "LAT": 40.870000 }, "geometry": { "type": "Point", "coordinates": [ -73.89, 40.87 ] } },
{ "type": "Feature", "properties": { "ST_FIPS": "36", "SFIPS": "36", "COUNTY_FIP": "003", "CFIPS": "003", "PL_FIPS": "5100", "ID": "957785", "NAME": "MOTT HAVEN", "POPULATION": "8008278", "ST": "NY", "STATE": "NEW YORK", "LON": -73.910000, "LAT": 40.820000 }, "geometry": { "type": "Point", "coordinates": [ -73.91, 40.82 ] } },
{ "type": "Feature", "properties": { "ST_FIPS": "36", "SFIPS": "36", "COUNTY_FIP": "003", "CFIPS": "003", "PL_FIPS": "51000", "ID": "962560", "NAME": "RIVERDALE", "POPULATION": "8008278", "ST": "NY", "STATE": "NEW YORK", "LON": -73.910000, "LAT": 40.900000 }, "geometry": { "type": "Point", "coordinates": [ -73.91, 40.9 ] } },
{ "type": "Feature", "properties": { "ST_FIPS": "36", "SFIPS": "36", "COUNTY_FIP": "119", "CFIPS": "119", "PL_FIPS": "51000", "ID": "971663", "NAME": "WOODLAWN", "POPULATION": "8008278", "ST": "NY", "STATE": "NEW YORK", "LON": -73.850000, "LAT": 40.900000 }, "geometry": { "type": "Point", "coordinates": [ -73.85, 40.9 ] } },
{ "type": "Feature", "properties": { "ST_FIPS": "36", "SFIPS": "36", "COUNTY_FIP": "003", "CFIPS": "003", "PL_FIPS": "5100", "ID": "952233", "NAME": "HARLEM", "POPULATION": "8008278", "ST": "NY", "STATE": "NEW YORK", "LON": -73.937500, "LAT": 40.824000 }, "geometry": { "type": "Point", "coordinates": [ -73.9375, 40.824 ] } },
{ "type": "Feature", "properties": { "ST_FIPS": "36", "SFIPS": "36", "COUNTY_FIP": "003", "CFIPS": "003", "PL_FIPS": "51000", "ID": "968846", "NAME": "WASHINGTON HEIGHTS", "POPULATION": "8008278", "ST": "NY", "STATE": "NEW YORK", "LON": -73.930000, "LAT": 40.850000 }, "geometry": { "type": "Point", "coordinates": [ -73.93, 40.85 ] } },
{ "type": "Feature", "properties": { "ST_FIPS": "36", "SFIPS": "36", "COUNTY_FIP": "047", "CFIPS": "047", "PL_FIPS": "51000", "ID": "943187", "NAME": "BAY RIDGE", "POPULATION": "8008278", "ST": "NY", "STATE": "NEW YORK", "LON": -74.020000, "LAT": 40.620000 }, "geometry": { "type": "Point", "coordinates": [ -74.02, 40.62 ] } },
{ "type": "Feature", "properties": { "ST_FIPS": "36", "SFIPS": "36", "COUNTY_FIP": "047", "CFIPS": "047", "PL_FIPS": "51000", "ID": "945743", "NAME": "CANARSIE", "POPULATION": "8008278", "ST": "NY", "STATE": "NEW YORK", "LON": -73.890000, "LAT": 40.650000 }, "geometry": { "type": "Point", "coordinates": [ -73.89, 40.65 ] } },
{ "type": "Feature", "properties": { "ST_FIPS": "36", "SFIPS": "36", "COUNTY_FIP": "047", "CFIPS": "047", "PL_FIPS": "51000", "ID": "947270", "NAME": "CONEY ISLAND", "POPULATION": "8008278", "ST": "NY", "STATE": "NEW YORK", "LON": -73.983000, "LAT": 40.583000 }, "geometry": { "type": "Point", "coordinates": [ -73.983, 40.583 ] } },
{ "type": "Feature", "properties": { "ST_FIPS": "36", "SFIPS": "36", "COUNTY_FIP": "047", "CFIPS": "047", "PL_FIPS": "51000", "ID": "3604751", "NAME": "CROWN HEIGHTS", "POPULATION": "8008278", "ST": "NY", "STATE": "NEW YORK", "LON": -73.940000, "LAT": 40.670000 }, "geometry": { "type": "Point", "coordinates": [ -73.94, 40.67 ] } },
{ "type": "Feature", "properties": { "ST_FIPS": "36", "SFIPS": "36", "COUNTY_FIP": "047", "CFIPS": "047", "PL_FIPS": "51000", "ID": "950251", "NAME": "FLATBUSH", "POPULATION": "8008278", "ST": "NY", "STATE": "NEW YORK", "LON": -73.950000, "LAT": 40.640000 }, "geometry": { "type": "Point", "coordinates": [ -73.95, 40.64 ] } },
{ "type": "Feature", "properties": { "ST_FIPS": "36", "SFIPS": "36", "COUNTY_FIP": "047", "CFIPS": "047", "PL_FIPS": "51000", "ID": "951757", "NAME": "GREENPOINT", "POPULATION": "8008278", "ST": "NY", "STATE": "NEW YORK", "LON": -73.950000, "LAT": 40.720000 }, "geometry": { "type": "Point", "coordinates": [ -73.95, 40.72 ] } },
{ "type": "Feature", "properties": { "ST_FIPS": "36", "SFIPS": "36", "COUNTY_FIP": "023", "CFIPS": "023", "PL_FIPS": "51000", "ID": "942490", "NAME": "ANNADALE", "POPULATION": "8008278", "ST": "NY", "STATE": "NEW YORK", "LON": -74.160000, "LAT": 40.550000 }, "geometry": { "type": "Point", "coordinates": [ -74.16, 40.55 ] } },
{ "type": "Feature", "properties": { "ST_FIPS": "36", "SFIPS": "36", "COUNTY_FIP": "017", "CFIPS": "017", "PL_FIPS": "51000", "ID": "951533", "NAME": "GRASMERE", "POPULATION": "8008278", "ST": "NY", "STATE": "NEW YORK", "LON": -74.070000, "LAT": 40.610000 }, "geometry": { "type": "Point", "coordinates": [ -74.07, 40.61 ] } },
{ "type": "Feature", "properties": { "ST_FIPS": "36", "SFIPS": "36", "COUNTY_FIP": "023", "CFIPS": "023", "PL_FIPS": "51000", "ID": "3608551", "NAME": "HEARTLAND VILLAGE", "POPULATION": "8008278", "ST": "NY", "STATE": "NEW YORK", "LON": -74.170000, "LAT": 40.585000 }, "geometry": { "type": "Point", "coordinates": [ -74.17, 40.585 ] } },
{ "type": "Feature", "properties": { "ST_FIPS": "36", "SFIPS": "36", "COUNTY_FIP": "023", "CFIPS": "023", "PL_FIPS": "51000", "ID": "953414", "NAME": "HUGUENOT", "POPULATION": "8008278", "ST": "NY", "STATE": "NEW YORK", "LON": -74.172500, "LAT": 40.540000 }, "geometry": { "type": "Point", "coordinates": [ -74.1725, 40.54 ] } },
{ "type": "Feature", "properties": { "ST_FIPS": "36", "SFIPS": "36", "COUNTY_FIP": "017", "CFIPS": "017", "PL_FIPS": "51000", "ID": "3608551", "NAME": "HYLAN BLVD", "POPULATION": "8008278", "ST": "NY", "STATE": "NEW YORK", "LON": -74.080000, "LAT": 40.590000 }, "geometry": { "type": "Point", "coordinates": [ -74.08, 40.59 ] } },
{ "type": "Feature", "properties": { "ST_FIPS": "36", "SFIPS": "36", "COUNTY_FIP": "017", "CFIPS": "017", "PL_FIPS": "51000", "ID": "958408", "NAME": "NEW DORP", "POPULATION": "8008278", "ST": "NY", "STATE": "NEW YORK", "LON": -74.110000, "LAT": 40.590000 }, "geometry": { "type": "Point", "coordinates": [ -74.11, 40.59 ] } },
{ "type": "Feature", "properties": { "ST_FIPS": "36", "SFIPS": "36", "COUNTY_FIP": "017", "CFIPS": "017", "PL_FIPS": "51000", "ID": "967598", "NAME": "TODT HILL", "POPULATION": "8008278", "ST": "NY", "STATE": "NEW YORK", "LON": -74.130000, "LAT": 40.610000 }, "geometry": { "type": "Point", "coordinates": [ -74.13, 40.61 ] } },
{ "type": "Feature", "properties": { "ST_FIPS": "36", "SFIPS": "36", "COUNTY_FIP": "017", "CFIPS": "017", "PL_FIPS": "51000", "ID": "967647", "NAME": "TOMPKINSVILLE", "POPULATION": "8008278", "ST": "NY", "STATE": "NEW YORK", "LON": -74.070000, "LAT": 40.630000 }, "geometry": { "type": "Point", "coordinates": [ -74.07, 40.63 ] } },
{ "type": "Feature", "properties": { "ST_FIPS": "36", "SFIPS": "36", "COUNTY_FIP": "017", "CFIPS": "017", "PL_FIPS": "51000", "ID": "968511", "NAME": "VERRAZANO-NARROWS", "POPULATION": "8008278", "ST": "NY", "STATE": "NEW YORK", "LON": -74.054500, "LAT": 40.611000 }, "geometry": { "type": "Point", "coordinates": [ -74.0545, 40.611 ] } },
{ "type": "Feature", "properties": { "ST_FIPS": "36", "SFIPS": "36", "COUNTY_FIP": "023", "CFIPS": "023", "PL_FIPS": "51000", "ID": "3608551", "NAME": "WEST SHORE EXPRESS", "POPULATION": "8008278", "ST": "NY", "STATE": "NEW YORK", "LON": -74.170000, "LAT": 40.600000 }, "geometry": { "type": "Point", "coordinates": [ -74.17, 40.6 ] } },
{ "type": "Feature", "properties": { "ST_FIPS": "39", "SFIPS": "39", "COUNTY_FIP": "061", "CFIPS": "061", "PL_FIPS": "15000", "ID": "1066650", "NAME": "CINCINNATI", "POPULATION": "331285", "ST": "OH", "STATE": "OHIO", "LON": -84.506000, "LAT": 39.139800 }, "geometry": { "type": "Point", "coordinates": [ -84.506, 39.1398 ] } },
{ "type": "Feature", "properties": { "ST_FIPS": "39", "SFIPS": "39", "COUNTY_FIP": "049", "CFIPS": "049", "PL_FIPS": "18000", "ID": "1080996", "NAME": "COLUMBUS", "POPULATION": "711470", "ST": "OH", "STATE": "OHIO", "LON": -82.987400, "LAT": 39.988900 }, "geometry": { "type": "Point", "coordinates": [ -82.9874, 39.9889 ] } },
{ "type": "Feature", "properties": { "ST_FIPS": "39", "SFIPS": "39", "COUNTY_FIP": "035", "CFIPS": "035", "PL_FIPS": "16000", "ID": "1066654", "NAME": "CLEVELAND", "POPULATION": "478403", "ST": "OH", "STATE": "OHIO", "LON": -81.678500, "LAT": 41.479700 }, "geometry": { "type": "Point", "coordinates": [ -81.6785, 41.4797 ] } },
{ "type": "Feature", "properties": { "ST_FIPS": "40", "SFIPS": "40", "COUNTY_FIP": "143", "CFIPS": "143", "PL_FIPS": "75000", "ID": "1100962", "NAME": "TULSA", "POPULATION": "393049", "ST": "OK", "STATE": "OKLAHOMA", "LON": -95.922500, "LAT": 36.133900 }, "geometry": { "type": "Point", "coordinates": [ -95.9225, 36.1339 ] } },
{ "type": "Feature", "properties": { "ST_FIPS": "42", "SFIPS": "42", "COUNTY_FIP": "003", "CFIPS": "003", "PL_FIPS": "61000", "ID": "1213644", "NAME": "PITTSBURGH", "POPULATION": "334563", "ST": "PA", "STATE": "PENNSYLVANIA", "LON": -79.976700, "LAT": 40.439200 }, "geometry": { "type": "Point", "coordinates": [ -79.9767, 40.4392 ] } },
{ "type": "Feature", "properties": { "ST_FIPS": "39", "SFIPS": "39", "COUNTY_FIP": "095", "CFIPS": "095", "PL_FIPS": "77000", "ID": "1067015", "NAME": "TOLEDO", "POPULATION": "313619", "ST": "OH", "STATE": "OHIO", "LON": -83.581600, "LAT": 41.663900 }, "geometry": { "type": "Point", "coordinates": [ -83.5816, 41.6639 ] } },
{ "type": "Feature", "properties": { "ST_FIPS": "36", "SFIPS": "36", "COUNTY_FIP": "003", "CFIPS": "003", "PL_FIPS": "5100", "ID": "942661", "NAME": "ASTORIA", "POPULATION": "8008278", "ST": "NY", "STATE": "NEW YORK", "LON": -73.910000, "LAT": 40.780000 }, "geometry": { "type": "Point", "coordinates": [ -73.91, 40.78 ] } },
{ "type": "Feature", "properties": { "ST_FIPS": "36", "SFIPS": "36", "COUNTY_FIP": "059", "CFIPS": "059", "PL_FIPS": "51000", "ID": "943210", "NAME": "BAYSIDE", "POPULATION": "8008278", "ST": "NY", "STATE": "NEW YORK", "LON": -73.770000, "LAT": 40.790000 }, "geometry": { "type": "Point", "coordinates": [ -73.77, 40.79 ] } },
{ "type": "Feature", "properties": { "ST_FIPS": "36", "SFIPS": "36", "COUNTY_FIP": "059", "CFIPS": "059", "PL_FIPS": "51000", "ID": "950315", "NAME": "FLUSHING", "POPULATION": "8008278", "ST": "NY", "STATE": "NEW YORK", "LON": -73.840000, "LAT": 40.770000 }, "geometry": { "type": "Point", "coordinates": [ -73.84, 40.77 ] } },
{ "type": "Feature", "properties": { "ST_FIPS": "36", "SFIPS": "36", "COUNTY_FIP": "059", "CFIPS": "059", "PL_FIPS": "51000", "ID": "953302", "NAME": "HOWARD BEACH", "POPULATION": "8008278", "ST": "NY", "STATE": "NEW YORK", "LON": -73.840000, "LAT": 40.660000 }, "geometry": { "type": "Point", "coordinates": [ -73.84, 40.66 ] } },
{ "type": "Feature", "properties": { "ST_FIPS": "36", "SFIPS": "36", "COUNTY_FIP": "003", "CFIPS": "003", "PL_FIPS": "5100", "ID": "970240", "NAME": "JACKSON HEIGHTS", "POPULATION": "8008278", "ST": "NY", "STATE": "NEW YORK", "LON": -73.880000, "LAT": 40.770000 }, "geometry": { "type": "Point", "coordinates": [ -73.88, 40.77 ] } },
{ "type": "Feature", "properties": { "ST_FIPS": "36", "SFIPS": "36", "COUNTY_FIP": "059", "CFIPS": "059", "PL_FIPS": "51000", "ID": "953916", "NAME": "JAMAICA", "POPULATION": "8008278", "ST": "NY", "STATE": "NEW YORK", "LON": -73.790000, "LAT": 40.710000 }, "geometry": { "type": "Point", "coordinates": [ -73.79, 40.71 ] } },
{ "type": "Feature", "properties": { "ST_FIPS": "36", "SFIPS": "36", "COUNTY_FIP": "059", "CFIPS": "059", "PL_FIPS": "51000", "ID": "978178", "NAME": "KENNEDY AIRPORT", "POPULATION": "8008278", "ST": "NY", "STATE": "NEW YORK", "LON": -73.778000, "LAT": 40.657500 }, "geometry": { "type": "Point", "coordinates": [ -73.778, 40.6575 ] } },
{ "type": "Feature", "properties": { "ST_FIPS": "36", "SFIPS": "36", "COUNTY_FIP": "003", "CFIPS": "003", "PL_FIPS": "5100", "ID": "973546", "NAME": "LAGUARDIA AIRPORT", "POPULATION": "8008278", "ST": "NY", "STATE": "NEW YORK", "LON": -73.871000, "LAT": 40.790000 }, "geometry": { "type": "Point", "coordinates": [ -73.871, 40.79 ] } },
{ "type": "Feature", "properties": { "ST_FIPS": "36", "SFIPS": "36", "COUNTY_FIP": "047", "CFIPS": "047", "PL_FIPS": "51000", "ID": "959723", "NAME": "OZONE PARK", "POPULATION": "8008278", "ST": "NY", "STATE": "NEW YORK", "LON": -73.850000, "LAT": 40.690000 }, "geometry": { "type": "Point", "coordinates": [ -73.85, 40.69 ] } },
{ "type": "Feature", "properties": { "ST_FIPS": "36", "SFIPS": "36", "COUNTY_FIP": "047", "CFIPS": "047", "PL_FIPS": "51000", "ID": "962741", "NAME": "ROCKAWAY BEACH", "POPULATION": "8008278", "ST": "NY", "STATE": "NEW YORK", "LON": -73.900000, "LAT": 40.570000 }, "geometry": { "type": "Point", "coordinates": [ -73.9, 40.57 ] } },
{ "type": "Feature", "properties": { "ST_FIPS": "36", "SFIPS": "36", "COUNTY_FIP": "003", "CFIPS": "003", "PL_FIPS": "5100", "ID": "967806", "NAME": "TRIBOROUGH BRIDGE", "POPULATION": "8008278", "ST": "NY", "STATE": "NEW YORK", "LON": -73.907500, "LAT": 40.794000 }, "geometry": { "type": "Point", "coordinates": [ -73.9075, 40.794 ] } },
{ "type": "Feature", "properties": { "ST_FIPS": "36", "SFIPS": "36", "COUNTY_FIP": "059", "CFIPS": "059", "PL_FIPS": "51000", "ID": "971164", "NAME": "WHITESTONE", "POPULATION": "8008278", "ST": "NY", "STATE": "NEW YORK", "LON": -73.810000, "LAT": 40.790000 }, "geometry": { "type": "Point", "coordinates": [ -73.81, 40.79 ] } },
{ "type": "Feature", "properties": { "ST_FIPS": "36", "SFIPS": "36", "COUNTY_FIP": "029", "CFIPS": "029", "PL_FIPS": "11000", "ID": "973345", "NAME": "BUFFALO", "POPULATION": "292648", "ST": "NY", "STATE": "NEW YORK", "LON": -78.859700, "LAT": 42.889800 }, "geometry": { "type": "Point", "coordinates": [ -78.8597, 42.8898 ] } },
{ "type": "Feature", "properties": { "ST_FIPS": "29", "SFIPS": "29", "COUNTY_FIP": "510", "CFIPS": "510", "PL_FIPS": "65000", "ID": "765765", "NAME": "ST. LOUIS", "POPULATION": "348189", "ST": "MO", "STATE": "MISSOURI", "LON": -90.244300, "LAT": 38.636000 }, "geometry": { "type": "Point", "coordinates": [ -90.2443, 38.636 ] } },
{ "type": "Feature", "properties": { "ST_FIPS": "37", "SFIPS": "37", "COUNTY_FIP": "183", "CFIPS": "183", "PL_FIPS": "55000", "ID": "1024242", "NAME": "RALEIGH", "POPULATION": "276093", "ST": "NC", "STATE": "NORTH CAROLINA", "LON": -78.658800, "LAT": 35.822000 }, "geometry": { "type": "Point", "coordinates": [ -78.6588, 35.822 ] } },
{ "type": "Feature", "properties": { "ST_FIPS": "31", "SFIPS": "31", "COUNTY_FIP": "055", "CFIPS": "055", "PL_FIPS": "37000", "ID": "835483", "NAME": "OMAHA", "POPULATION": "390007", "ST": "NE", "STATE": "NEBRASKA", "LON": -96.011700, "LAT": 41.263900 }, "geometry": { "type": "Point", "coordinates": [ -96.0117, 41.2639 ] } },
{ "type": "Feature", "properties": { "ST_FIPS": "34", "SFIPS": "34", "COUNTY_FIP": "013", "CFIPS": "013", "PL_FIPS": "51000", "ID": "878762", "NAME": "NEWARK", "POPULATION": "273546", "ST": "NJ", "STATE": "NEW JERSEY", "LON": -74.173200, "LAT": 40.724100 }, "geometry": { "type": "Point", "coordinates": [ -74.1732, 40.7241 ] } },
{ "type": "Feature", "properties": { "ST_FIPS": "37", "SFIPS": "37", "COUNTY_FIP": "810", "CFIPS": "810", "PL_FIPS": "82000", "ID": "1026300", "NAME": "KNOTTS ISLAND", "POPULATION": "393069", "ST": "NC", "STATE": "NORTH CAROLINA", "LON": -75.919600, "LAT": 36.513000 }, "geometry": { "type": "Point", "coordinates": [ -75.9196, 36.513 ] } },
{ "type": "Feature", "properties": { "ST_FIPS": "35", "SFIPS": "35", "COUNTY_FIP": "001", "CFIPS": "001", "PL_FIPS": "02000", "ID": "928679", "NAME": "ALBUQUERQUE", "POPULATION": "448607", "ST": "NM", "STATE": "NEW MEXICO", "LON": -106.624600, "LAT": 35.117200 }, "geometry": { "type": "Point", "coordinates": [ -106.6246, 35.1172 ] } },
{ "type": "Feature", "properties": { "ST_FIPS": "32", "SFIPS": "32", "COUNTY_FIP": "003", "CFIPS": "003", "PL_FIPS": "40000", "ID": "841766", "NAME": "LONE MTN", "POPULATION": "478434", "ST": "NV", "STATE": "NEVADA", "LON": -115.312500, "LAT": 36.239200 }, "geometry": { "type": "Point", "coordinates": [ -115.3125, 36.2392 ] } },
{ "type": "Feature", "properties": { "ST_FIPS": "32", "SFIPS": "32", "COUNTY_FIP": "003", "CFIPS": "003", "PL_FIPS": "40000", "ID": "3200340", "NAME": "SUMMERLIN", "POPULATION": "478434", "ST": "NV", "STATE": "NEVADA", "LON": -115.305000, "LAT": 36.206000 }, "geometry": { "type": "Point", "coordinates": [ -115.305, 36.206 ] } },
{ "type": "Feature", "properties": { "ST_FIPS": "22", "SFIPS": "22", "COUNTY_FIP": "071", "CFIPS": "071", "PL_FIPS": "55000", "ID": "2207155", "NAME": "EAST NEW ORLEANS", "POPULATION": "484674", "ST": "LA", "STATE": "LOUISIANA", "LON": -89.931400, "LAT": 30.065800 }, "geometry": { "type": "Point", "coordinates": [ -89.9314, 30.0658 ] } },
{ "type": "Feature", "properties": { "ST_FIPS": "22", "SFIPS": "22", "COUNTY_FIP": "051", "CFIPS": "051", "PL_FIPS": "31915", "ID": "1629985", "NAME": "NEW ORLEANS", "POPULATION": "484674", "ST": "LA", "STATE": "LOUISIANA", "LON": -90.083000, "LAT": 29.970000 }, "geometry": { "type": "Point", "coordinates": [ -90.083, 29.97 ] } },
{ "type": "Feature", "properties": { "ST_FIPS": "24", "SFIPS": "24", "COUNTY_FIP": "510", "CFIPS": "510", "PL_FIPS": "04000", "ID": "597040", "NAME": "BALTIMORE", "POPULATION": "651154", "ST": "MD", "STATE": "MARYLAND", "LON": -76.610600, "LAT": 39.300800 }, "geometry": { "type": "Point", "coordinates": [ -76.6106, 39.3008 ] } },
{ "type": "Feature", "properties": { "ST_FIPS": "24", "SFIPS": "24", "COUNTY_FIP": "510", "CFIPS": "510", "PL_FIPS": "04000", "ID": "1707690", "NAME": "FELLS POINT", "POPULATION": "651154", "ST": "MD", "STATE": "MARYLAND", "LON": -76.565000, "LAT": 39.264700 }, "geometry": { "type": "Point", "coordinates": [ -76.565, 39.2647 ] } },
{ "type": "Feature", "properties": { "ST_FIPS": "24", "SFIPS": "24", "COUNTY_FIP": "510", "CFIPS": "510", "PL_FIPS": "04000", "ID": "2451004", "NAME": "PARK HEIGHTS", "POPULATION": "651154", "ST": "MD", "STATE": "MARYLAND", "LON": -76.607800, "LAT": 39.336900 }, "geometry": { "type": "Point", "coordinates": [ -76.6078, 39.3369 ] } },
{ "type": "Feature", "properties": { "ST_FIPS": "26", "SFIPS": "26", "COUNTY_FIP": "163", "CFIPS": "163", "PL_FIPS": "22000", "ID": "2616322", "NAME": "SOUTHWEST DETROIT", "POPULATION": "951270", "ST": "MI", "STATE": "MICHIGAN", "LON": -83.110000, "LAT": 42.330000 }, "geometry": { "type": "Point", "coordinates": [ -83.11, 42.33 ] } },
{ "type": "Feature", "properties": { "ST_FIPS": "25", "SFIPS": "25", "COUNTY_FIP": "025", "CFIPS": "025", "PL_FIPS": "07000", "ID": "612278", "NAME": "ALLSTON", "POPULATION": "589141", "ST": "MA", "STATE": "MASSACHUSETTS", "LON": -71.133330, "LAT": 42.350000 }, "geometry": { "type": "Point", "coordinates": [ -71.13333, 42.35 ] } },
{ "type": "Feature", "properties": { "ST_FIPS": "25", "SFIPS": "25", "COUNTY_FIP": "025", "CFIPS": "025", "PL_FIPS": "07000", "ID": "617565", "NAME": "BOSTON", "POPULATION": "589141", "ST": "MA", "STATE": "MASSACHUSETTS", "LON": -71.066670, "LAT": 42.316670 }, "geometry": { "type": "Point", "coordinates": [ -71.06667, 42.31667 ] } },
{ "type": "Feature", "properties": { "ST_FIPS": "25", "SFIPS": "25", "COUNTY_FIP": "025", "CFIPS": "025", "PL_FIPS": "07000", "ID": "612296", "NAME": "BRIGHTON", "POPULATION": "589141", "ST": "MA", "STATE": "MASSACHUSETTS", "LON": -71.150000, "LAT": 42.350000 }, "geometry": { "type": "Point", "coordinates": [ -71.15, 42.35 ] } },
{ "type": "Feature", "properties": { "ST_FIPS": "25", "SFIPS": "25", "COUNTY_FIP": "025", "CFIPS": "025", "PL_FIPS": "07000", "ID": "619308", "NAME": "CHARLESTOWN", "POPULATION": "589141", "ST": "MA", "STATE": "MASSACHUSETTS", "LON": -71.066670, "LAT": 42.383330 }, "geometry": { "type": "Point", "coordinates": [ -71.06667, 42.38333 ] } },
{ "type": "Feature", "properties": { "ST_FIPS": "25", "SFIPS": "25", "COUNTY_FIP": "025", "CFIPS": "025", "PL_FIPS": "07000", "ID": "612904", "NAME": "DORCHESTER", "POPULATION": "589141", "ST": "MA", "STATE": "MASSACHUSETTS", "LON": -71.083330, "LAT": 42.283330 }, "geometry": { "type": "Point", "coordinates": [ -71.08333, 42.28333 ] } },
{ "type": "Feature", "properties": { "ST_FIPS": "25", "SFIPS": "25", "COUNTY_FIP": "025", "CFIPS": "025", "PL_FIPS": "07000", "ID": "612734", "NAME": "EAST BOSTON", "POPULATION": "589141", "ST": "MA", "STATE": "MASSACHUSETTS", "LON": -71.033330, "LAT": 42.366670 }, "geometry": { "type": "Point", "coordinates": [ -71.03333, 42.36667 ] } },
{ "type": "Feature", "properties": { "ST_FIPS": "25", "SFIPS": "25", "COUNTY_FIP": "025", "CFIPS": "025", "PL_FIPS": "07000", "ID": "612916", "NAME": "FOREST HILLS", "POPULATION": "589141", "ST": "MA", "STATE": "MASSACHUSETTS", "LON": -71.104200, "LAT": 42.296700 }, "geometry": { "type": "Point", "coordinates": [ -71.104, 42.2967 ] } },
{ "type": "Feature", "properties": { "ST_FIPS": "25", "SFIPS": "25", "COUNTY_FIP": "025", "CFIPS": "025", "PL_FIPS": "07000", "ID": "612942", "NAME": "HYDE PARK", "POPULATION": "589141", "ST": "MA", "STATE": "MASSACHUSETTS", "LON": -71.116670, "LAT": 42.266670 }, "geometry": { "type": "Point", "coordinates": [ -71.11667, 42.26667 ] } },
{ "type": "Feature", "properties": { "ST_FIPS": "25", "SFIPS": "25", "COUNTY_FIP": "025", "CFIPS": "025", "PL_FIPS": "07000", "ID": "612943", "NAME": "JAMAICA PLAIN", "POPULATION": "589141", "ST": "MA", "STATE": "MASSACHUSETTS", "LON": -71.120800, "LAT": 42.309700 }, "geometry": { "type": "Point", "coordinates": [ -71.121, 42.3097 ] } },
{ "type": "Feature", "properties": { "ST_FIPS": "25", "SFIPS": "25", "COUNTY_FIP": "025", "CFIPS": "025", "PL_FIPS": "07000", "ID": "612955", "NAME": "MATTAPAN", "POPULATION": "589141", "ST": "MA", "STATE": "MASSACHUSETTS", "LON": -71.100000, "LAT": 42.266670 }, "geometry": { "type": "Point", "coordinates": [ -71.1, 42.26667 ] } },
{ "type": "Feature", "properties": { "ST_FIPS": "25", "SFIPS": "25", "COUNTY_FIP": "025", "CFIPS": "025", "PL_FIPS": "07000", "ID": "612992", "NAME": "ROSLINDALE", "POPULATION": "589141", "ST": "MA", "STATE": "MASSACHUSETTS", "LON": -71.133330, "LAT": 42.283330 }, "geometry": { "type": "Point", "coordinates": [ -71.13333, 42.28333 ] } },
{ "type": "Feature", "properties": { "ST_FIPS": "25", "SFIPS": "25", "COUNTY_FIP": "025", "CFIPS": "025", "PL_FIPS": "07000", "ID": "613002", "NAME": "SOUTH BOSTON", "POPULATION": "589141", "ST": "MA", "STATE": "MASSACHUSETTS", "LON": -71.050000, "LAT": 42.333330 }, "geometry": { "type": "Point", "coordinates": [ -71.05, 42.33333 ] } },
{ "type": "Feature", "properties": { "ST_FIPS": "25", "SFIPS": "25", "COUNTY_FIP": "025", "CFIPS": "025", "PL_FIPS": "07000", "ID": "612406", "NAME": "WEST ROXBURY", "POPULATION": "589141", "ST": "MA", "STATE": "MASSACHUSETTS", "LON": -71.166670, "LAT": 42.283330 }, "geometry": { "type": "Point", "coordinates": [ -71.16667, 42.28333 ] } },
{ "type": "Feature", "properties": { "ST_FIPS": "17", "SFIPS": "17", "COUNTY_FIP": "031", "CFIPS": "031", "PL_FIPS": "14000", "ID": "423587", "NAME": "CHICAGO", "POPULATION": "2896016", "ST": "IL", "STATE": "ILLINOIS", "LON": -87.630000, "LAT": 41.880000 }, "geometry": { "type": "Point", "coordinates": [ -87.63, 41.88 ] } },
{ "type": "Feature", "properties": { "ST_FIPS": "17", "SFIPS": "17", "COUNTY_FIP": "195", "CFIPS": "195", "PL_FIPS": "14000", "ID": "1719514", "NAME": "DOUGLAS PARK", "POPULATION": "2896016", "ST": "IL", "STATE": "ILLINOIS", "LON": -87.680000, "LAT": 41.850000 }, "geometry": { "type": "Point", "coordinates": [ -87.68, 41.85 ] } },
{ "type": "Feature", "properties": { "ST_FIPS": "17", "SFIPS": "17", "COUNTY_FIP": "031", "CFIPS": "031", "PL_FIPS": "14000", "ID": "410679", "NAME": "HUMBOLDT PARK", "POPULATION": "2896016", "ST": "IL", "STATE": "ILLINOIS", "LON": -87.700000, "LAT": 41.900000 }, "geometry": { "type": "Point", "coordinates": [ -87.7, 41.9 ] } },
{ "type": "Feature", "properties": { "ST_FIPS": "17", "SFIPS": "17", "COUNTY_FIP": "031", "CFIPS": "031", "PL_FIPS": "14000", "ID": "410743", "NAME": "HYDE PARK", "POPULATION": "2896016", "ST": "IL", "STATE": "ILLINOIS", "LON": -87.590000, "LAT": 41.790000 }, "geometry": { "type": "Point", "coordinates": [ -87.59, 41.79 ] } },
{ "type": "Feature", "properties": { "ST_FIPS": "17", "SFIPS": "17", "COUNTY_FIP": "031", "CFIPS": "031", "PL_FIPS": "43744", "ID": "422892", "NAME": "LAKEVIEW", "POPULATION": "2896016", "ST": "IL", "STATE": "ILLINOIS", "LON": -87.650000, "LAT": 41.940000 }, "geometry": { "type": "Point", "coordinates": [ -87.65, 41.94 ] } },
{ "type": "Feature", "properties": { "ST_FIPS": "17", "SFIPS": "17", "COUNTY_FIP": "031", "CFIPS": "031", "PL_FIPS": "14000", "ID": "412134", "NAME": "LINCOLN PARK", "POPULATION": "2896016", "ST": "IL", "STATE": "ILLINOIS", "LON": -87.639500, "LAT": 41.930000 }, "geometry": { "type": "Point", "coordinates": [ -87.6395, 41.93 ] } },
{ "type": "Feature", "properties": { "ST_FIPS": "17", "SFIPS": "17", "COUNTY_FIP": "031", "CFIPS": "031", "PL_FIPS": "43744", "ID": "1772729", "NAME": "LOGAN SQUARE", "POPULATION": "2896016", "ST": "IL", "STATE": "ILLINOIS", "LON": -87.710000, "LAT": 41.930000 }, "geometry": { "type": "Point", "coordinates": [ -87.71, 41.93 ] } },
{ "type": "Feature", "properties": { "ST_FIPS": "17", "SFIPS": "17", "COUNTY_FIP": "031", "CFIPS": "031", "PL_FIPS": "14000", "ID": "1831556", "NAME": "NAVY PIER", "POPULATION": "2896016", "ST": "IL", "STATE": "ILLINOIS", "LON": -87.620000, "LAT": 41.890000 }, "geometry": { "type": "Point", "coordinates": [ -87.62, 41.89 ] } },
{ "type": "Feature", "properties": { "ST_FIPS": "17", "SFIPS": "17", "COUNTY_FIP": "089", "CFIPS": "089", "PL_FIPS": "84122", "ID": "418736", "NAME": "SOUTH CHICAGO", "POPULATION": "2896016", "ST": "IL", "STATE": "ILLINOIS", "LON": -87.550000, "LAT": 41.740000 }, "geometry": { "type": "Point", "coordinates": [ -87.55, 41.74 ] } },
{ "type": "Feature", "properties": { "ST_FIPS": "12", "SFIPS": "12", "COUNTY_FIP": "031", "CFIPS": "031", "PL_FIPS": "35160", "ID": "294657", "NAME": "ARLINGTON", "POPULATION": "635230", "ST": "FL", "STATE": "FLORIDA", "LON": -81.603200, "LAT": 30.335400 }, "geometry": { "type": "Point", "coordinates": [ -81.6032, 30.3354 ] } },
{ "type": "Feature", "properties": { "ST_FIPS": "12", "SFIPS": "12", "COUNTY_FIP": "031", "CFIPS": "031", "PL_FIPS": "35160", "ID": "1203135", "NAME": "JACKSONVILLE", "POPULATION": "635230", "ST": "FL", "STATE": "FLORIDA", "LON": -81.656100, "LAT": 30.331800 }, "geometry": { "type": "Point", "coordinates": [ -81.6561, 30.3318 ] } },
{ "type": "Feature", "properties": { "ST_FIPS": "06", "SFIPS": "06", "COUNTY_FIP": "019", "CFIPS": "019", "PL_FIPS": "68000", "ID": "1658134", "NAME": "BRIDGEPORT", "POPULATION": "894943", "ST": "CA", "STATE": "CALIFORNIA", "LON": -119.220000, "LAT": 38.260000 }, "geometry": { "type": "Point", "coordinates": [ -119.22, 38.26 ] } },
{ "type": "Feature", "properties": { "ST_FIPS": "06", "SFIPS": "06", "COUNTY_FIP": "019", "CFIPS": "019", "PL_FIPS": "68000", "ID": "254662", "NAME": "BRIDGEPORT RESERVOIR", "POPULATION": "894943", "ST": "CA", "STATE": "CALIFORNIA", "LON": -119.220000, "LAT": 38.319900 }, "geometry": { "type": "Point", "coordinates": [ -119.22, 38.3199 ] } },
{ "type": "Feature", "properties": { "ST_FIPS": "06", "SFIPS": "06", "COUNTY_FIP": "019", "CFIPS": "019", "PL_FIPS": "68000", "ID": "1655911", "NAME": "COLEVILLE", "POPULATION": "894943", "ST": "CA", "STATE": "CALIFORNIA", "LON": -119.510000, "LAT": 38.570000 }, "geometry": { "type": "Point", "coordinates": [ -119.51, 38.57 ] } },
{ "type": "Feature", "properties": { "ST_FIPS": "06", "SFIPS": "06", "COUNTY_FIP": "019", "CFIPS": "019", "PL_FIPS": "68000", "ID": "262391", "NAME": "LEAVITT MEADOWS", "POPULATION": "894943", "ST": "CA", "STATE": "CALIFORNIA", "LON": -119.550000, "LAT": 38.320000 }, "geometry": { "type": "Point", "coordinates": [ -119.55, 38.32 ] } },
{ "type": "Feature", "properties": { "ST_FIPS": "06", "SFIPS": "06", "COUNTY_FIP": "019", "CFIPS": "019", "PL_FIPS": "68000", "ID": "0605168", "NAME": "SONORA PASS", "POPULATION": "894943", "ST": "CA", "STATE": "CALIFORNIA", "LON": -119.629000, "LAT": 38.328000 }, "geometry": { "type": "Point", "coordinates": [ -119.629, 38.328 ] } },
{ "type": "Feature", "properties": { "ST_FIPS": "06", "SFIPS": "06", "COUNTY_FIP": "019", "CFIPS": "019", "PL_FIPS": "68000", "ID": "0605168", "NAME": "WALKER", "POPULATION": "894943", "ST": "CA", "STATE": "CALIFORNIA", "LON": -119.480000, "LAT": 38.520000 }, "geometry": { "type": "Point", "coordinates": [ -119.48, 38.52 ] } },
{ "type": "Feature", "properties": { "ST_FIPS": "08", "SFIPS": "08", "COUNTY_FIP": "031", "CFIPS": "031", "PL_FIPS": "20000", "ID": "201738", "NAME": "DENVER", "POPULATION": "554636", "ST": "CO", "STATE": "COLORADO", "LON": -104.872700, "LAT": 39.768000 }, "geometry": { "type": "Point", "coordinates": [ -104.8727, 39.768 ] } },
{ "type": "Feature", "properties": { "ST_FIPS": "11", "SFIPS": "11", "COUNTY_FIP": "001", "CFIPS": "001", "PL_FIPS": "50000", "ID": "531871", "NAME": "WASHINGTON", "POPULATION": "572059", "ST": "DC", "STATE": "DISTRICT", "LON": -77.016200, "LAT": 38.905100 }, "geometry": { "type": "Point", "coordinates": [ -77.0162, 38.9051 ] } },
{ "type": "Feature", "properties": { "ST_FIPS": "18", "SFIPS": "18", "COUNTY_FIP": "097", "CFIPS": "097", "PL_FIPS": "36010", "ID": "452890", "NAME": "INDIANAPOLIS", "POPULATION": "752279", "ST": "IN", "STATE": "INDIANA", "LON": -86.146200, "LAT": 39.776400 }, "geometry": { "type": "Point", "coordinates": [ -86.1462, 39.7764 ] } },
{ "type": "Feature", "properties": { "ST_FIPS": "06", "SFIPS": "06", "COUNTY_FIP": "067", "CFIPS": "067", "PL_FIPS": "64000", "ID": "0606764", "NAME": "CAL EXPO", "POPULATION": "407018", "ST": "CA", "STATE": "CALIFORNIA", "LON": -121.434200, "LAT": 38.591100 }, "geometry": { "type": "Point", "coordinates": [ -121.4342, 38.5911 ] } },
{ "type": "Feature", "properties": { "ST_FIPS": "06", "SFIPS": "06", "COUNTY_FIP": "067", "CFIPS": "067", "PL_FIPS": "64000", "ID": "0606764", "NAME": "SACRAMENTO", "POPULATION": "407018", "ST": "CA", "STATE": "CALIFORNIA", "LON": -121.467400, "LAT": 38.566900 }, "geometry": { "type": "Point", "coordinates": [ -121.4674, 38.5669 ] } },
{ "type": "Feature", "properties": { "ST_FIPS": "06", "SFIPS": "06", "COUNTY_FIP": "067", "CFIPS": "067", "PL_FIPS": "64000", "ID": "0606764", "NAME": "SACRAMENTO ZOO", "POPULATION": "407018", "ST": "CA", "STATE": "CALIFORNIA", "LON": -121.502500, "LAT": 38.539200 }, "geometry": { "type": "Point", "coordinates": [ -121.5025, 38.5392 ] } },
{ "type": "Feature", "properties": { "ST_FIPS": "32", "SFIPS": "32", "COUNTY_FIP": "003", "CFIPS": "003", "PL_FIPS": "46000", "ID": "7237", "NAME": "LITTLEFIELD", "POPULATION": "396375", "ST": "AZ", "STATE": "ARIZONA", "LON": -113.934500, "LAT": 36.895300 }, "geometry": { "type": "Point", "coordinates": [ -113.9345, 36.8953 ] } },
{ "type": "Feature", "properties": { "ST_FIPS": "04", "SFIPS": "04", "COUNTY_FIP": "019", "CFIPS": "019", "PL_FIPS": "77000", "ID": "43534", "NAME": "TUCSON", "POPULATION": "486699", "ST": "AZ", "STATE": "ARIZONA", "LON": -110.891700, "LAT": 32.195800 }, "geometry": { "type": "Point", "coordinates": [ -110.8917, 32.1958 ] } },
{ "type": "Feature", "properties": { "ST_FIPS": "04", "SFIPS": "04", "COUNTY_FIP": "013", "CFIPS": "013", "PL_FIPS": "46000", "ID": "7890", "NAME": "MESA", "POPULATION": "396375", "ST": "AZ", "STATE": "ARIZONA", "LON": -111.740300, "LAT": 33.417700 }, "geometry": { "type": "Point", "coordinates": [ -111.7403, 33.4177 ] } },
{ "type": "Feature", "properties": { "ST_FIPS": "04", "SFIPS": "04", "COUNTY_FIP": "013", "CFIPS": "013", "PL_FIPS": "55000", "ID": "44784", "NAME": "PHOENIX", "POPULATION": "1321045", "ST": "AZ", "STATE": "ARIZONA", "LON": -112.071400, "LAT": 33.542500 }, "geometry": { "type": "Point", "coordinates": [ -112.0714, 33.5425 ] } },
{ "type": "Feature", "properties": { "ST_FIPS": "06", "SFIPS": "06", "COUNTY_FIP": "037", "CFIPS": "037", "PL_FIPS": "43000", "ID": "1652747", "NAME": "LONG BEACH", "POPULATION": "461522", "ST": "CA", "STATE": "CALIFORNIA", "LON": -118.159800, "LAT": 33.788900 }, "geometry": { "type": "Point", "coordinates": [ -118.1598, 33.7889 ] } },
{ "type": "Feature", "properties": { "ST_FIPS": "06", "SFIPS": "06", "COUNTY_FIP": "037", "CFIPS": "037", "PL_FIPS": "44000", "ID": "1962035", "NAME": "VAN NUYS", "POPULATION": "3694820", "ST": "CA", "STATE": "CALIFORNIA", "LON": -118.450000, "LAT": 34.180000 }, "geometry": { "type": "Point", "coordinates": [ -118.45, 34.18 ] } },
{ "type": "Feature", "properties": { "ST_FIPS": "06", "SFIPS": "06", "COUNTY_FIP": "065", "CFIPS": "065", "PL_FIPS": "62000", "ID": "0606562", "NAME": "RIVERSIDE", "POPULATION": "255166", "ST": "CA", "STATE": "CALIFORNIA", "LON": -117.397400, "LAT": 33.940400 }, "geometry": { "type": "Point", "coordinates": [ -117.3974, 33.9404 ] } },
{ "type": "Feature", "properties": { "ST_FIPS": "06", "SFIPS": "06", "COUNTY_FIP": "059", "CFIPS": "059", "PL_FIPS": "02000", "ID": "1652663", "NAME": "ANAHEIM", "POPULATION": "328014", "ST": "CA", "STATE": "CALIFORNIA", "LON": -117.872300, "LAT": 33.838900 }, "geometry": { "type": "Point", "coordinates": [ -117.8723, 33.8389 ] } },
{ "type": "Feature", "properties": { "ST_FIPS": "06", "SFIPS": "06", "COUNTY_FIP": "059", "CFIPS": "059", "PL_FIPS": "69000", "ID": "0605969", "NAME": "SANTA ANA", "POPULATION": "337977", "ST": "CA", "STATE": "CALIFORNIA", "LON": -117.882100, "LAT": 33.736400 }, "geometry": { "type": "Point", "coordinates": [ -117.8821, 33.7364 ] } },
{ "type": "Feature", "properties": { "ST_FIPS": "06", "SFIPS": "06", "COUNTY_FIP": "019", "CFIPS": "019", "PL_FIPS": "27000", "ID": "277606", "NAME": "FRESNO", "POPULATION": "427652", "ST": "CA", "STATE": "CALIFORNIA", "LON": -119.792900, "LAT": 36.780600 }, "geometry": { "type": "Point", "coordinates": [ -119.7929, 36.7806 ] } },
{ "type": "Feature", "properties": { "ST_FIPS": "08", "SFIPS": "08", "COUNTY_FIP": "005", "CFIPS": "005", "PL_FIPS": "04000", "ID": "204737", "NAME": "AURORA", "POPULATION": "276393", "ST": "CO", "STATE": "COLORADO", "LON": -104.729800, "LAT": 39.699000 }, "geometry": { "type": "Point", "coordinates": [ -104.7298, 39.699 ] } },
{ "type": "Feature", "properties": { "ST_FIPS": "08", "SFIPS": "08", "COUNTY_FIP": "005", "CFIPS": "005", "PL_FIPS": "04000", "ID": "0800504", "NAME": "BUCKLEY ANGB", "POPULATION": "276393", "ST": "CO", "STATE": "COLORADO", "LON": -104.750000, "LAT": 39.700000 }, "geometry": { "type": "Point", "coordinates": [ -104.75, 39.7 ] } },
{ "type": "Feature", "properties": { "ST_FIPS": "12", "SFIPS": "12", "COUNTY_FIP": "031", "CFIPS": "031", "PL_FIPS": "35160", "ID": "287766", "NAME": "NORMANDY", "POPULATION": "635230", "ST": "FL", "STATE": "FLORIDA", "LON": -81.761100, "LAT": 30.305500 }, "geometry": { "type": "Point", "coordinates": [ -81.7611, 30.3055 ] } },
{ "type": "Feature", "properties": { "ST_FIPS": "12", "SFIPS": "12", "COUNTY_FIP": "031", "CFIPS": "031", "PL_FIPS": "35160", "ID": "288043", "NAME": "OCEANWAY", "POPULATION": "635230", "ST": "FL", "STATE": "FLORIDA", "LON": -81.632700, "LAT": 30.466500 }, "geometry": { "type": "Point", "coordinates": [ -81.6327, 30.4665 ] } },
{ "type": "Feature", "properties": { "ST_FIPS": "12", "SFIPS": "12", "COUNTY_FIP": "031", "CFIPS": "031", "PL_FIPS": "35160", "ID": "288247", "NAME": "ORTEGA", "POPULATION": "635230", "ST": "FL", "STATE": "FLORIDA", "LON": -81.708600, "LAT": 30.270300 }, "geometry": { "type": "Point", "coordinates": [ -81.7086, 30.2703 ] } },
{ "type": "Feature", "properties": { "ST_FIPS": "12", "SFIPS": "12", "COUNTY_FIP": "031", "CFIPS": "031", "PL_FIPS": "35160", "ID": "301654", "NAME": "RIVERSIDE", "POPULATION": "635230", "ST": "FL", "STATE": "FLORIDA", "LON": -81.684000, "LAT": 30.312700 }, "geometry": { "type": "Point", "coordinates": [ -81.684, 30.3127 ] } },
{ "type": "Feature", "properties": { "ST_FIPS": "12", "SFIPS": "12", "COUNTY_FIP": "031", "CFIPS": "031", "PL_FIPS": "35160", "ID": "290484", "NAME": "SAN MARCO", "POPULATION": "635230", "ST": "FL", "STATE": "FLORIDA", "LON": -81.660600, "LAT": 30.311200 }, "geometry": { "type": "Point", "coordinates": [ -81.6606, 30.3112 ] } },
{ "type": "Feature", "properties": { "ST_FIPS": "12", "SFIPS": "12", "COUNTY_FIP": "031", "CFIPS": "031", "PL_FIPS": "35160", "ID": "1203135", "NAME": "TALLYRAND", "POPULATION": "635230", "ST": "FL", "STATE": "FLORIDA", "LON": -81.633000, "LAT": 30.359400 }, "geometry": { "type": "Point", "coordinates": [ -81.633, 30.3594 ] } },
{ "type": "Feature", "properties": { "ST_FIPS": "06", "SFIPS": "06", "COUNTY_FIP": "001", "CFIPS": "001", "PL_FIPS": "53000", "ID": "0600153", "NAME": "OAKLAND", "POPULATION": "399484", "ST": "CA", "STATE": "CALIFORNIA", "LON": -122.224500, "LAT": 37.771500 }, "geometry": { "type": "Point", "coordinates": [ -122.2245, 37.7715 ] } },
{ "type": "Feature", "properties": { "ST_FIPS": "06", "SFIPS": "06", "COUNTY_FIP": "085", "CFIPS": "085", "PL_FIPS": "68000", "ID": "0608568", "NAME": "SAN JOSE", "POPULATION": "894943", "ST": "CA", "STATE": "CALIFORNIA", "LON": -121.849800, "LAT": 37.304000 }, "geometry": { "type": "Point", "coordinates": [ -121.8498, 37.304 ] } },
{ "type": "Feature", "properties": { "ST_FIPS": "27", "SFIPS": "27", "COUNTY_FIP": "053", "CFIPS": "053", "PL_FIPS": "43000", "ID": "655030", "NAME": "MINNEAPOLIS", "POPULATION": "382618", "ST": "MN", "STATE": "MINNESOTA", "LON": -93.266800, "LAT": 44.961800 }, "geometry": { "type": "Point", "coordinates": [ -93.2668, 44.9618 ] } },
{ "type": "Feature", "properties": { "ST_FIPS": "27", "SFIPS": "27", "COUNTY_FIP": "123", "CFIPS": "123", "PL_FIPS": "58000", "ID": "662851", "NAME": "ST PAUL", "POPULATION": "287151", "ST": "MN", "STATE": "MINNESOTA", "LON": -93.103700, "LAT": 44.947700 }, "geometry": { "type": "Point", "coordinates": [ -93.1037, 44.9477 ] } },
{ "type": "Feature", "properties": { "ST_FIPS": "40", "SFIPS": "40", "COUNTY_FIP": "109", "CFIPS": "109", "PL_FIPS": "55000", "ID": "1102140", "NAME": "OKLAHOMA CITY", "POPULATION": "506132", "ST": "OK", "STATE": "OKLAHOMA", "LON": -97.513500, "LAT": 35.467100 }, "geometry": { "type": "Point", "coordinates": [ -97.5135, 35.4671 ] } },
{ "type": "Feature", "properties": { "ST_FIPS": "40", "SFIPS": "40", "COUNTY_FIP": "027", "CFIPS": "027", "PL_FIPS": "55000", "ID": "1100855", "NAME": "STELLA", "POPULATION": "506132", "ST": "OK", "STATE": "OKLAHOMA", "LON": -97.212500, "LAT": 35.319000 }, "geometry": { "type": "Point", "coordinates": [ -97.2125, 35.319 ] } },
{ "type": "Feature", "properties": { "ST_FIPS": "53", "SFIPS": "53", "COUNTY_FIP": "033", "CFIPS": "033", "PL_FIPS": "63000", "ID": "1512650", "NAME": "SEATTLE", "POPULATION": "563374", "ST": "WA", "STATE": "WASHINGTON", "LON": -122.350300, "LAT": 47.621800 }, "geometry": { "type": "Point", "coordinates": [ -122.3503, 47.6218 ] } },
{ "type": "Feature", "properties": { "ST_FIPS": "12", "SFIPS": "12", "COUNTY_FIP": "025", "CFIPS": "025", "PL_FIPS": "45000", "ID": "295004", "NAME": "MIAMI", "POPULATION": "362470", "ST": "FL", "STATE": "FLORIDA", "LON": -80.200000, "LAT": 25.770000 }, "geometry": { "type": "Point", "coordinates": [ -80.2, 25.77 ] } },
{ "type": "Feature", "properties": { "ST_FIPS": "08", "SFIPS": "08", "COUNTY_FIP": "041", "CFIPS": "041", "PL_FIPS": "16000", "ID": "204797", "NAME": "COLORADO SPRINGS", "POPULATION": "360890", "ST": "CO", "STATE": "COLORADO", "LON": -104.759900, "LAT": 38.863200 }, "geometry": { "type": "Point", "coordinates": [ -104.7599, 38.8632 ] } },
{ "type": "Feature", "properties": { "ST_FIPS": "08", "SFIPS": "08", "COUNTY_FIP": "041", "CFIPS": "041", "PL_FIPS": "16000", "ID": "2511974", "NAME": "PETERSON AFB", "POPULATION": "360890", "ST": "CO", "STATE": "COLORADO", "LON": -104.700000, "LAT": 38.830000 }, "geometry": { "type": "Point", "coordinates": [ -104.7, 38.83 ] } },
{ "type": "Feature", "properties": { "ST_FIPS": "17", "SFIPS": "17", "COUNTY_FIP": "031", "CFIPS": "031", "PL_FIPS": "14000", "ID": "423601", "NAME": "MEIGS FIELD", "POPULATION": "2896016", "ST": "IL", "STATE": "ILLINOIS", "LON": -87.614900, "LAT": 41.860000 }, "geometry": { "type": "Point", "coordinates": [ -87.6149, 41.86 ] } },
{ "type": "Feature", "properties": { "ST_FIPS": "41", "SFIPS": "41", "COUNTY_FIP": "051", "CFIPS": "051", "PL_FIPS": "59000", "ID": null, "NAME": "LLOYD CENTER", "POPULATION": "529121", "ST": "OR", "STATE": "OREGON", "LON": -122.660000, "LAT": 45.530000 }, "geometry": { "type": "Point", "coordinates": [ -122.66, 45.53 ] } },
{ "type": "Feature", "properties": { "ST_FIPS": "41", "SFIPS": "41", "COUNTY_FIP": "051", "CFIPS": "051", "PL_FIPS": "59000", "ID": "1136645", "NAME": "PORTLAND DOWNTOWN", "POPULATION": "529121", "ST": "OR", "STATE": "OREGON", "LON": -122.680000, "LAT": 45.520000 }, "geometry": { "type": "Point", "coordinates": [ -122.68, 45.52 ] } },
{ "type": "Feature", "properties": { "ST_FIPS": "41", "SFIPS": "41", "COUNTY_FIP": "051", "CFIPS": "051", "PL_FIPS": "59000", "ID": "1158515", "NAME": "SWAN ISLAND", "POPULATION": "529121", "ST": "OR", "STATE": "OREGON", "LON": -122.710000, "LAT": 45.560000 }, "geometry": { "type": "Point", "coordinates": [ -122.71, 45.56 ] } },
{ "type": "Feature", "properties": { "ST_FIPS": "41", "SFIPS": "41", "COUNTY_FIP": "051", "CFIPS": "051", "PL_FIPS": "59000", "ID": "1129182", "NAME": "WILSHIRE PARK", "POPULATION": "529121", "ST": "OR", "STATE": "OREGON", "LON": -122.630000, "LAT": 45.550000 }, "geometry": { "type": "Point", "coordinates": [ -122.63, 45.55 ] } },
{ "type": "Feature", "properties": { "ST_FIPS": "37", "SFIPS": "37", "COUNTY_FIP": "119", "CFIPS": "119", "PL_FIPS": "12000", "ID": "996534", "NAME": "UNC CHARLOTTE", "POPULATION": "540828", "ST": "NC", "STATE": "NORTH CAROLINA", "LON": -80.729100, "LAT": 35.302500 }, "geometry": { "type": "Point", "coordinates": [ -80.7291, 35.3025 ] } },
{ "type": "Feature", "properties": { "ST_FIPS": "37", "SFIPS": "37", "COUNTY_FIP": "119", "CFIPS": "119", "PL_FIPS": "12000", "ID": "1001257", "NAME": "EASTLAND MALL", "POPULATION": "540828", "ST": "NC", "STATE": "NORTH CAROLINA", "LON": -80.753100, "LAT": 35.207500 }, "geometry": { "type": "Point", "coordinates": [ -80.7531, 35.2075 ] } },
{ "type": "Feature", "properties": { "ST_FIPS": "37", "SFIPS": "37", "COUNTY_FIP": "119", "CFIPS": "119", "PL_FIPS": "12000", "ID": "1001409", "NAME": "SOUTHPARK MALL", "POPULATION": "540828", "ST": "NC", "STATE": "NORTH CAROLINA", "LON": -80.828700, "LAT": 35.151300 }, "geometry": { "type": "Point", "coordinates": [ -80.8287, 35.1513 ] } },
{ "type": "Feature", "properties": { "ST_FIPS": "37", "SFIPS": "37", "COUNTY_FIP": "119", "CFIPS": "119", "PL_FIPS": "12000", "ID": "1019610", "NAME": "CENTER CITY CHARLOTTE", "POPULATION": "540828", "ST": "NC", "STATE": "NORTH CAROLINA", "LON": -80.843100, "LAT": 35.227100 }, "geometry": { "type": "Point", "coordinates": [ -80.8431, 35.2271 ] } },
{ "type": "Feature", "properties": { "ST_FIPS": "48", "SFIPS": "48", "COUNTY_FIP": "141", "CFIPS": "141", "PL_FIPS": "24000", "ID": "1380946", "NAME": "CENTRAL EL PASO", "POPULATION": "563662", "ST": "TX", "STATE": "TEXAS", "LON": -106.482140, "LAT": 31.783260 }, "geometry": { "type": "Point", "coordinates": [ -106.482137405285, 31.783256381580536 ] } },
{ "type": "Feature", "properties": { "ST_FIPS": "21", "SFIPS": "21", "COUNTY_FIP": "111", "CFIPS": "111", "PL_FIPS": "48000", "ID": "509453", "NAME": "Louisville", "POPULATION": "256231", "ST": "KY", "STATE": "KENTUCKY", "LON": -85.741200, "LAT": 38.224800 }, "geometry": { "type": "Point", "coordinates": [ -85.7412, 38.2248 ] } }
]
}
